[
  {
    "Name": "Buena DOT",
    "Latitutde": 39.51554447,
    "Longitude": -74.92849165,
    "Address": "Rt. 40 near Catherine Avenue",
    "City": "Buena",
    "State": "NJ",
    "County": "Atlantic",
    "Hours": "7:45 AM - 3:45 PM",
    "Phone Number": "609-697-1136",
    "Type of Gas": "Unleaded / Diesel"
  },
  {
    "Name": "Buena Vista State Police",
    "Latitutde": 39.57795,
    "Longitude": -74.868281,
    "Address": "1045 Rt. 54 South of Rt. 322",
    "City": "Buena Vista Township",
    "State": "NJ",
    "County": "Atlantic",
    "Hours": "7:00 AM - 7:00 PM",
    "Phone Number": "609-625-1105",
    "Type of Gas": "Unleaded"
  },
  {
    "Name": "Hammonton Motor Pool",
    "Latitutde": 39.65486598,
    "Longitude": -74.79584455,
    "Address": "253-D North White Horse Pike",
    "City": "Hammonton",
    "State": "NJ",
    "County": "Atlantic",
    "Hours": "24 Hours",
    "Phone Number": "609-757-2649",
    "Type of Gas": "Unleaded"
  },
  {
    "Name": "Mays Landing DOT",
    "Latitutde": 39.47751148,
    "Longitude": -74.70172997,
    "Address": "5837 Apple Street",
    "City": "Mays Landing",
    "State": "NJ",
    "County": "Atlantic",
    "Hours": "24 Hours",
    "Phone Number": "609-625-8284",
    "Type of Gas": "Unleaded / Diesel"
  },
  {
    "Name": "Pomona DOT",
    "Latitutde": 39.45960788,
    "Longitude": -74.54338501,
    "Address": "Rt. 30 & W. McKinley Avenue",
    "City": "Pomona",
    "State": "NJ",
    "County": "Atlantic",
    "Hours": "7:45 AM - 3:45 PM",
    "Phone Number": "609-441-3196",
    "Type of Gas": "Unleaded / Diesel"
  },
  {
    "Name": "Lodi DOT",
    "Latitutde": 40.88844460,
    "Longitude": -74.07202900,
    "Address": "Gregg St. 1 block off Rt. 17",
    "City": "Lodi",
    "State": "NJ",
    "County": "Bergen",
    "Hours": "24 Hours",
    "Phone Number": "201-845-6564",
    "Type of Gas": "Unleaded / Diesel"
  },
  {
    "Name": "Ramsey DOT",
    "Latitutde": 41.06565227,
    "Longitude": -74.12047012,
    "Address": "15 Arrow Road",
    "City": "Ramsey",
    "State": "NJ",
    "County": "Bergen",
    "Hours": "7:45 AM - 3:45 PM",
    "Phone Number": "201-825-1076",
    "Type of Gas": "Unleaded / Diesel"
  },
  {
    "Name": "Bordentown DOT",
    "Latitutde": 40.13178135,
    "Longitude": -74.71658907,
    "Address": "Dunns Mill Rd. off Rt. 130",
    "City": "Bordentown",
    "State": "NJ",
    "County": "Bordentown",
    "Hours": "Unleaded - 24 Hours \nDiesel - 7:30 AM - 3:45 PM",
    "Phone Number": "609-298-2980",
    "Type of Gas": "Unleaded / Diesel"
  },
  {
    "Name": "Edgewater Park DOT",
    "Latitutde": 40.04082858,
    "Longitude": -74.91620151,
    "Address": "Rt. 130 & Mt. Holly Rd. ",
    "City": "Edgewater Park",
    "State": "NJ",
    "County": "Bordentown",
    "Hours": "24 Hours",
    "Phone Number": "609-877-8245",
    "Type of Gas": "Unleaded / Diesel"
  },
  {
    "Name": "Mt. Laurel DOT",
    "Latitutde": 39.96744662,
    "Longitude": -74.88930386,
    "Address": "Rt. 38 East, 1/4 mile East of Rt. 295",
    "City": "Mt. Laurel",
    "State": "NJ",
    "County": "Bordentown",
    "Hours": "24 Hours",
    "Phone Number": "856-235-3096",
    "Type of Gas": "Unleaded / Diesel"
  },
  {
    "Name": "Southampton DOT",
    "Latitutde": 39.88907707,
    "Longitude": -74.74474718,
    "Address": "Rt. 70 West of Rt. 206 at Red Lion Circle",
    "City": "Southampton",
    "State": "NJ",
    "County": "Bordentown",
    "Hours": "24 Hours",
    "Phone Number": "609-859-2335",
    "Type of Gas": "Unleaded / Diesel"
  },
  {
    "Name": "Berlin DOT",
    "Latitutde": 39.80369329,
    "Longitude": -74.93442722,
    "Address": "36 Walker Avenue",
    "City": "Berlin",
    "State": "NJ",
    "County": "Camden",
    "Hours": "24 Hours",
    "Phone Number": "856-767-7717",
    "Type of Gas": "Unleaded / Diesel"
  },
  {
    "Name": "Cherry Hill DOT",
    "Latitutde": 39.90389152,
    "Longitude": -74.98461145,
    "Address": "Frontage Road & Rt. 70 near Rt. 295",
    "City": "Cherry Hill",
    "State": "NJ",
    "County": "Camden",
    "Hours": "24 Hours",
    "Phone Number": "856-795-4748",
    "Type of Gas": "Unleaded / Diesel"
  },
  {
    "Name": "Pennsauken DOT",
    "Latitutde": 39.94934153,
    "Longitude": -75.07126805,
    "Address": "3750 Rt. 130 & Federal St. Ramp Southbound",
    "City": "Pennsauken",
    "State": "NJ",
    "County": "Camden",
    "Hours": "7:30 AM - 3:45 PM",
    "Phone Number": "856-665-2995",
    "Type of Gas": "Unleaded / Diesel"
  },
  {
    "Name": "Middle Township DOT",
    "Latitutde": 39.02916768,
    "Longitude": -74.86327371,
    "Address": "Rt. 9 & W. Edgewood Ave.",
    "City": "Rio Grande",
    "State": "NJ",
    "County": "Cape May",
    "Hours": "24 Hours",
    "Phone Number": "609-465-4201",
    "Type of Gas": "Unleaded / Diesel"
  },
  {
    "Name": "North Wildwood State Police",
    "Latitutde": 39.007403,
    "Longitude": -74.791143,
    "Address": "1st & Central Ave.",
    "City": "North Wildwood",
    "State": "NJ",
    "County": "Cape May",
    "Hours": "7:00 AM - 7:00 PM",
    "Phone Number": "609-522-6081",
    "Type of Gas": "Unleaded"
  },
  {
    "Name": "Petersburg DOT",
    "Latitutde": 39.25964713,
    "Longitude": -74.73066206,
    "Address": "400 Old Tuckahoe Road",
    "City": "Petersburg",
    "State": "NJ",
    "County": "Cape May",
    "Hours": "24 Hours",
    "Phone Number": "609-628-2533",
    "Type of Gas": "Unleaded / Diesel"
  },
  {
    "Name": "Woodbine Dev. Center",
    "Latitutde": 39.23413958,
    "Longitude": -74.80345129,
    "Address": "1175 DeHirsch Ave. & Fantail ",
    "City": "Woodbine",
    "State": "NJ",
    "County": "Cape May",
    "Hours": "24 Hours",
    "Phone Number": "609-861-6021",
    "Type of Gas": "Unleaded / Diesel"
  },
  {
    "Name": "Bayside Facility",
    "Latitutde": 39.23339997,
    "Longitude": -74.96568202,
    "Address": "4294 Rt. 47",
    "City": "Leesburg",
    "State": "NJ",
    "County": "Cumberland",
    "Hours": "24 Hours",
    "Phone Number": "856-785-0040 x 5429",
    "Type of Gas": "Unleaded / Diesel"
  },
  {
    "Name": "Cumberland DOT",
    "Latitutde": 39.36417407,
    "Longitude": -74.93084981,
    "Address": "Rt. 49 & Hesstown Rd.",
    "City": "Cumberland",
    "State": "NJ",
    "County": "Cumberland",
    "Hours": "24 Hours",
    "Phone Number": "856-825-3320",
    "Type of Gas": "Unleaded / Diesel"
  },
  {
    "Name": "Port Norris State Police",
    "Latitutde": 39.28804,
    "Longitude": -75.012461,
    "Address": "8861 Highland Street",
    "City": "Port Norris",
    "State": "NJ",
    "County": "Cumberland",
    "Hours": "7:00 AM - 7:00 PM",
    "Phone Number": "609-785-0036",
    "Type of Gas": "Unleaded"
  },
  {
    "Name": "Southwoods State Prison",
    "Latitutde": 39.41498116,
    "Longitude": -75.21248817,
    "Address": "1 N. Industrial Blvd & 215 S. Burlington Rd.",
    "City": "Bridgeton",
    "State": "NJ",
    "County": "Cumberland",
    "Hours": "24 Hours",
    "Phone Number": "856-459-7600",
    "Type of Gas": "Unleaded / Diesel"
  },
  {
    "Name": "Vineland DOT",
    "Latitutde": 39.45778852,
    "Longitude": -75.04187987,
    "Address": "1959 Delsea Dr. & West Elmer Rd.",
    "City": "Vineland",
    "State": "NJ",
    "County": "Cumberland",
    "Hours": "24 Hours",
    "Phone Number": "856-696-6805",
    "Type of Gas": "Unleaded / Diesel"
  },
  {
    "Name": "Newark DOT",
    "Latitutde": 40.70941990,
    "Longitude": -74.17571162,
    "Address": "Jct. Rts. 1,9,21,22",
    "City": "Newark",
    "State": "NJ",
    "County": "Essex",
    "Hours": "24 Hours",
    "Phone Number": "973-648-2725",
    "Type of Gas": "Unleaded / Diesel"
  },
  {
    "Name": "West Orange DOT",
    "Latitutde": 40.78366162,
    "Longitude": -74.27598034,
    "Address": "1255 Pleasant Valley Way at National Guard Armory",
    "City": "West Orange",
    "State": "NJ",
    "County": "Essex",
    "Hours": "7:30 AM - 3:45 PM",
    "Phone Number": "",
    "Type of Gas": "Unleaded / Diesel"
  },
  {
    "Name": "Bridgeport DOT",
    "Latitutde": 39.80411480,
    "Longitude": -75.34441319,
    "Address": "Rts. 130 & 322",
    "City": "Bridgeport",
    "State": "NJ",
    "County": "Gloucester",
    "Hours": "24 Hours",
    "Phone Number": "856-467-0737",
    "Type of Gas": "Unleaded / Diesel"
  },
  {
    "Name": "Deptford DOT",
    "Latitutde": 39.83225320,
    "Longitude": -75.09148157,
    "Address": "Superior Way off Rt. 41 at Rt. 42",
    "City": "Deptford",
    "State": "NJ",
    "County": "Gloucester",
    "Hours": "24 Hours",
    "Phone Number": "856-227-8080",
    "Type of Gas": "Unleaded / Diesel"
  },
  {
    "Name": "Glassboro DOT",
    "Latitutde": 39.69656522,
    "Longitude": -75.10849719,
    "Address": "126 Grove Street at Rt. 47",
    "City": "Glassboro",
    "State": "NJ",
    "County": "Gloucester",
    "Hours": "24 Hours",
    "Phone Number": "856-881-1711",
    "Type of Gas": "Unleaded / Diesel"
  },
  {
    "Name": "West Deptford DOT",
    "Latitutde": 39.86494376,
    "Longitude": -75.14575114,
    "Address": "1140 Crown Point Rd. at MP 24 & 25",
    "City": "Westville",
    "State": "NJ",
    "County": "Gloucester",
    "Hours": "24 Hours",
    "Phone Number": "856-845-2850",
    "Type of Gas": "Unleaded / Diesel"
  },
  {
    "Name": "Jersey City DOT",
    "Latitutde": 40.73686317,
    "Longitude": -74.08018562,
    "Address": "401 Rts. 1&9 Truck Rte Southbound",
    "City": "Jersey City",
    "State": "NJ",
    "County": "Hudson",
    "Hours": "24 Hours",
    "Phone Number": "201-451-0435",
    "Type of Gas": "Unleaded / Diesel"
  },
  {
    "Name": "Bloomsbury DOT",
    "Latitutde": 40.66078600,
    "Longitude": -75.06664165,
    "Address": "1000 Rt. 173",
    "City": "Bloomsbury",
    "State": "NJ",
    "County": "Hunterdon",
    "Hours": "24 Hours",
    "Phone Number": "908-479-4851",
    "Type of Gas": "Unleaded / Diesel"
  },
  {
    "Name": "Clinton Point DOT",
    "Latitutde": 40.64038353,
    "Longitude": -74.88898107,
    "Address": "84 Beaver Ave.",
    "City": "Clinton",
    "State": "NJ",
    "County": "Hunterdon",
    "Hours": "24 Hours",
    "Phone Number": "908-735-4002",
    "Type of Gas": "Unleaded / Diesel"
  },
  {
    "Name": "Flemington DOT",
    "Latitutde": 40.50922972,
    "Longitude": -74.85131465,
    "Address": "Rt. 31 at Railroad Crossing",
    "City": "Flemington",
    "State": "NJ",
    "County": "Hunterdon",
    "Hours": "24 Hours",
    "Phone Number": "908-782-3025",
    "Type of Gas": "Unleaded / Diesel"
  },
  {
    "Name": "West Amwell DOT",
    "Latitutde": 40.38549512,
    "Longitude": -74.91528086,
    "Address": "1406 Rt. 179",
    "City": "West Amwell",
    "State": "NJ",
    "County": "Hunterdon",
    "Hours": "7:45 AM - 3:45 PM",
    "Phone Number": "609-397-2349",
    "Type of Gas": "Unleaded / Diesel"
  },
  {
    "Name": "Eggerts Crossing Garage",
    "Latitutde": 40.27274199,
    "Longitude": -74.74666088,
    "Address": "161 Eggerts Crossing Rd.",
    "City": "Lawrenceville",
    "State": "NJ",
    "County": "Mercer",
    "Hours": "7:15 AM - 3:15 PM",
    "Phone Number": "609-530-2073",
    "Type of Gas": "Unleaded"
  },
  {
    "Name": "Fernwood DOT",
    "Latitutde": 40.25685605,
    "Longitude": -74.79821311,
    "Address": "999 Parkway Ave.",
    "City": "Trenton",
    "State": "NJ",
    "County": "Mercer",
    "Hours": "24 Hours",
    "Phone Number": "609-530-2208",
    "Type of Gas": "Unleaded / Diesel"
  },
  {
    "Name": "Hamilton DOT",
    "Latitutde": 40.20476792,
    "Longitude": -74.63589228,
    "Address": "2779 Kuser Road",
    "City": "Hamilton",
    "State": "NJ",
    "County": "Mercer",
    "Hours": "24 Hours",
    "Phone Number": "609-584-4328",
    "Type of Gas": "Unleaded / Diesel"
  },
  {
    "Name": "Hamilton State Police",
    "Latitutde": null,
    "Longitude": null,
    "Address": "1400 Negron Drive",
    "City": "Trenton",
    "State": "NJ",
    "County": "Mercer",
    "Hours": "7:00 AM - 7:00 PM",
    "Phone Number": "609-584-5000",
    "Type of Gas": "Unleaded"
  },
  {
    "Name": "Lawrence Twp. DOT",
    "Latitutde": 40.26535133,
    "Longitude": -74.71632132,
    "Address": "2798 Brunswick Avenue",
    "City": "Lawrenceville",
    "State": "NJ",
    "County": "Mercer",
    "Hours": "24 Hours",
    "Phone Number": "609-530-2650",
    "Type of Gas": "Unleaded / Diesel"
  },
  {
    "Name": "Washington Twp. DOT",
    "Latitutde": 40.24521913,
    "Longitude": -74.56851629,
    "Address": "Rt. 130 & Voelbel Rd. ",
    "City": "Washington Twp.",
    "State": "NJ",
    "County": "Mercer",
    "Hours": "24 Hours",
    "Phone Number": "609-448-4224",
    "Type of Gas": "Unleaded / Diesel"
  },
  {
    "Name": "West Trenton DOT",
    "Latitutde": 40.27645795,
    "Longitude": -74.82595939,
    "Address": "780 Bear Tavern Road",
    "City": "West Trenton",
    "State": "NJ",
    "County": "Mercer",
    "Hours": "24 Hours",
    "Phone Number": "609-883-5049",
    "Type of Gas": "Unleaded / Diesel"
  },
  {
    "Name": "College Farm DOT",
    "Latitutde": 40.46633234,
    "Longitude": -74.43153684,
    "Address": "Rt. 1 NB at College Farm Road",
    "City": "North Brunswick",
    "State": "NJ",
    "County": "Middlesex",
    "Hours": "24 Hours",
    "Phone Number": "732-247-5775",
    "Type of Gas": "Unleaded / Diesel"
  },
  {
    "Name": "East Brunswick Public Works",
    "Latitutde": 40.44609,
    "Longitude": -74.407853,
    "Address": "4 Harts Lane",
    "City": "East Brunswick",
    "State": "NJ",
    "County": "Middlesex",
    "Hours": "8:00 AM - 4:00 PM",
    "Phone Number": "732-390-6886",
    "Type of Gas": "Non-Automated"
  },
  {
    "Name": "Keasbey/Woodbridge DOT",
    "Latitutde": 40.51805278,
    "Longitude": -74.30968803,
    "Address": "Smith St. off Rt. 440 to 90 Crows Mill Road",
    "City": "Keasbey",
    "State": "NJ",
    "County": "Middlesex",
    "Hours": "24 Hours",
    "Phone Number": "732-738-3206",
    "Type of Gas": "Unleaded / Diesel"
  },
  {
    "Name": "Sand Hill DOT",
    "Latitutde": 40.41112755,
    "Longitude": -74.54426021,
    "Address": "3919 Rt. 1",
    "City": "Monmouth Junction",
    "State": "NJ",
    "County": "Middlesex",
    "Hours": "24 Hours",
    "Phone Number": "732-297-0671",
    "Type of Gas": "Unleaded / Diesel"
  },
  {
    "Name": "Sayreville DOT",
    "Latitutde": 40.49016916,
    "Longitude": -74.30029538,
    "Address": "25 Melrose Avenue",
    "City": "Sayreville",
    "State": "NJ",
    "County": "Middlesex",
    "Hours": "7:30 AM - 4:00 PM",
    "Phone Number": "",
    "Type of Gas": "Diesel"
  },
  {
    "Name": "Woodbridge Dev. Center",
    "Latitutde": 40.58335914,
    "Longitude": -74.26800727,
    "Address": "1277 Rahway Avenue",
    "City": "Woodbridge",
    "State": "NJ",
    "County": "Middlesex",
    "Hours": "24 Hours",
    "Phone Number": "732-499-5168",
    "Type of Gas": "Unleaded / Diesel"
  },
  {
    "Name": "Freehold DOT",
    "Latitutde": 40.24369762,
    "Longitude": -74.2713046,
    "Address": "200 Daniels Way off Rt. 79",
    "City": "Freehold",
    "State": "NJ",
    "County": "Monmouth",
    "Hours": "24 Hours",
    "Phone Number": "732-625-4370",
    "Type of Gas": "Unleaded / Diesel"
  },
  {
    "Name": "Hazlet DOT",
    "Latitutde": 40.422786,
    "Longitude": -74.209831,
    "Address": "370 Clark Street ",
    "City": "Hazlet",
    "State": "NJ",
    "County": "Monmouth",
    "Hours": "7:45 AM - 3:45 PM",
    "Phone Number": "732-264-5387",
    "Type of Gas": "Diesel"
  },
  {
    "Name": "Ocean Twp. DOT",
    "Latitutde": 40.23280082,
    "Longitude": -74.06037254,
    "Address": "100 Bowne Rd. at Rt. 66",
    "City": "Ocean Township",
    "State": "NJ",
    "County": "Monmouth",
    "Hours": "24 Hours",
    "Phone Number": "732-922-1310",
    "Type of Gas": "Unleaded / Diesel"
  },
  {
    "Name": "Wall Twp. DOT",
    "Latitutde": 40.12265214,
    "Longitude": -74.07707522,
    "Address": "2436 Paynters Road",
    "City": "Wall Township",
    "State": "NJ",
    "County": "Monmouth",
    "Hours": "24 Hours",
    "Phone Number": "732-528-7339",
    "Type of Gas": "Unleaded / Diesel"
  },
  {
    "Name": "Netcong DOT",
    "Latitutde": 40.89337617,
    "Longitude": -74.69634695,
    "Address": "90 Rt. 183 North",
    "City": "Netcong",
    "State": "NJ",
    "County": "Morris",
    "Hours": "24 Hours",
    "Phone Number": "973-691-4917",
    "Type of Gas": "Unleaded / Diesel"
  },
  {
    "Name": "Riverdale DOT",
    "Latitutde": 40.98956980,
    "Longitude": -74.30105240,
    "Address": "1 Riverdale Rd. behind National Guard Armory",
    "City": "Riverdale",
    "State": "NJ",
    "County": "Morris",
    "Hours": "Unleaded - 24 Hours \nDiesel - 7:30 AM - 4:00 PM",
    "Phone Number": "973-839-2077",
    "Type of Gas": "Unleaded / Diesel"
  },
  {
    "Name": "Rockaway DOT",
    "Latitutde": 40.91857611,
    "Longitude": -74.58652670,
    "Address": "200 Rt. 15 South MP 3",
    "City": "Wharton",
    "State": "NJ",
    "County": "Morris",
    "Hours": "7:30 AM - 3:45 PM",
    "Phone Number": "973-361-8701",
    "Type of Gas": "Unleaded / Diesel"
  },
  {
    "Name": "Lakewood DOT",
    "Latitutde": 40.04957180,
    "Longitude": -74.22339715,
    "Address": "45 Honey Locust Drive behind 84 Lumber",
    "City": "Lakewood",
    "State": "NJ",
    "County": "Ocean",
    "Hours": "24 Hours",
    "Phone Number": "732-942-2700",
    "Type of Gas": "Unleaded / Diesel"
  },
  {
    "Name": "Manahawkin DOT",
    "Latitutde": 39.69451178,
    "Longitude": -74.26486765,
    "Address": "Rt. 72 at Rt. 9 South to 123 Grassy Hollow Rd.",
    "City": "Manahawkin",
    "State": "NJ",
    "County": "Ocean",
    "Hours": "7:45 AM - 3:45 PM",
    "Phone Number": "609-597-2166",
    "Type of Gas": "Unleaded / Diesel"
  },
  {
    "Name": "Toms River DOT",
    "Latitutde": 39.96805337,
    "Longitude": -74.23567666,
    "Address": "743 Rt. 37 West ",
    "City": "Toms River",
    "State": "NJ",
    "County": "Ocean",
    "Hours": "24 Hours",
    "Phone Number": "732-341-2216",
    "Type of Gas": "Unleaded / Diesel"
  },
  {
    "Name": "Clifton DOT",
    "Latitutde": 40.838978,
    "Longitude": -74.161580,
    "Address": "Bloomfield Ave East & Isabella St.",
    "City": "Clifton",
    "State": "NJ",
    "County": "Passaic ",
    "Hours": "24 Hours",
    "Phone Number": "201-866-7274",
    "Type of Gas": "Unleaded / Diesel"
  },
  {
    "Name": "Totowa DOT",
    "Latitutde": 40.89776431,
    "Longitude": -74.22975736,
    "Address": "300 Minisink Rd. off Rt. 80 West Bound",
    "City": "Totowa",
    "State": "NJ",
    "County": "Passaic ",
    "Hours": "24 Hours",
    "Phone Number": "973-785-9310",
    "Type of Gas": "Unleaded / Diesel"
  },
  {
    "Name": "Paterson DOT",
    "Latitutde": 40.93588669,
    "Longitude": -74.14187188,
    "Address": "1 McClean Blvd.",
    "City": "Paterson",
    "State": "NJ",
    "County": "Passaic ",
    "Hours": "24 Hours",
    "Phone Number": "973-278-5541",
    "Type of Gas": "Unleaded / Diesel"
  },
  {
    "Name": "Deepwater DOT",
    "Latitutde": 39.677937,
    "Longitude": -75.486985,
    "Address": "County Rd. 551 Exit 1C Rt. 295 SB",
    "City": "Deepwater",
    "State": "NJ",
    "County": "Salem",
    "Hours": "24 Hours",
    "Phone Number": "856-299-3407",
    "Type of Gas": "Unleaded / Diesel"
  },
  {
    "Name": "Elmer DOT",
    "Latitutde": 39.598444,
    "Longitude": -75.149157,
    "Address": "355 Rt. 40 MP 21.5",
    "City": "Pittsgrove",
    "State": "NJ",
    "County": "Salem",
    "Hours": "7:30 AM - 3:45 PM",
    "Phone Number": "856-358-8813",
    "Type of Gas": "Unleaded / Diesel"
  },
  {
    "Name": "Bedminster DOT",
    "Latitutde": 40.65123677,
    "Longitude": -74.64499021,
    "Address": "455 Rt. 202/206 South",
    "City": "Pluckemin",
    "State": "NJ",
    "County": "Somerset",
    "Hours": "24 Hours",
    "Phone Number": "908-234-2130",
    "Type of Gas": "Unleaded / Diesel"
  },
  {
    "Name": "Bridgewater DOT",
    "Latitutde": 40.58997095,
    "Longitude": -74.62639744,
    "Address": "150 Commons Way",
    "City": "Bridgewater ",
    "State": "NJ",
    "County": "Somerset",
    "Hours": "24 Hours",
    "Phone Number": "908-704-3096",
    "Type of Gas": "Unleaded / Diesel"
  },
  {
    "Name": "Branchville DOT",
    "Latitutde": 41.15154413,
    "Longitude": -74.76831456,
    "Address": "349 Rt. 206",
    "City": "Branchville",
    "State": "NJ",
    "County": "Sussex",
    "Hours": "24 Hours",
    "Phone Number": "973-948-3590",
    "Type of Gas": "Unleaded / Diesel"
  },
  {
    "Name": "Lafayette DOT",
    "Latitutde": 41.09273553,
    "Longitude": -74.67791503,
    "Address": "38 Rt. 94",
    "City": "Lafayette",
    "State": "NJ",
    "County": "Sussex",
    "Hours": "24 Hours",
    "Phone Number": "973-383-3003",
    "Type of Gas": "Unleaded / Diesel"
  },
  {
    "Name": "Sussex DOT",
    "Latitutde": 41.199888,
    "Longitude": -74.597297,
    "Address": "Rt. 24 North at County Rd. 565",
    "City": "Sussex",
    "State": "NJ",
    "County": "Sussex",
    "Hours": "7:30 AM - 3:45 PM",
    "Phone Number": "973-875-4719",
    "Type of Gas": "Unleaded / Diesel"
  },
  {
    "Name": "Summit DOT",
    "Latitutde": 40.716273,
    "Longitude": -74.329762,
    "Address": "46 Springfield Avenue ",
    "City": "Summit",
    "State": "NJ",
    "County": "Union",
    "Hours": "7:30 AM - 4:00 PM",
    "Phone Number": "973-376-1302",
    "Type of Gas": "Unleaded / Diesel"
  },
  {
    "Name": "Columbia DOT",
    "Latitutde": 40.935311,
    "Longitude": -75.101895,
    "Address": "24 Simpson Street",
    "City": "Columbia",
    "State": "NJ",
    "County": "Warren",
    "Hours": "24 Hours",
    "Phone Number": "908-496-4088",
    "Type of Gas": "Unleaded / Diesel"
  },
  {
    "Name": "Port Colden DOT",
    "Latitutde": 40.76586,
    "Longitude": -74.93224,
    "Address": "619 Rt. 57 behind State Police Building",
    "City": "Port Colden",
    "State": "NJ",
    "County": "Warren",
    "Hours": "24 Hours",
    "Phone Number": "908-689-0570",
    "Type of Gas": "Unleaded / Diesel"
  },
  {
    "Name": "Yellow Frame DOT",
    "Latitutde": 40.98829409,
    "Longitude": -74.88516556,
    "Address": "Rt. 94 between Mott Rd. & Kerr Rd.",
    "City": "Marksboro",
    "State": "NJ",
    "County": "Warren",
    "Hours": "7:45 AM - 3:45 PM",
    "Phone Number": "908-362-6896",
    "Type of Gas": "Diesel"
  }
]